[{"id": "7284256811", "name": "Dolores Park studio with patio,, $500 move in credit", "url": "https://sfbay.craigslist.org/sfc/apa/d/san-francisco-dolores-park-studio-with/7284256811.html", "datetime": "2021-03-21 13:03", "price": "$1,850", "where": "mission district", "image_url": "https://images.craigslist.org/00404_4wsD30PYknPz_0ak07K_600x450.jpg", "lat": 37.76568, "lng": -122.426482}, {"id": "7291842064", "name": "$1500 1BR/1BA in beautiful Duboce apt [3BR 2BA]", "url": "https://sfbay.craigslist.org/sfc/apa/d/san-francisco-br-1ba-in-beautiful/7291842064.html", "datetime": "2021-03-15 12:21", "price": "$1,500", "where": "lower haight", "image_url": "https://images.craigslist.org/01515_kNrwKVfPRIgz_0CI0t2_600x450.jpg", "lat": 37.767595, "lng": -122.431191}, {"id": "7294118548", "name": "Large cyclist's special", "url": "https://sfbay.craigslist.org/sfc/apa/d/san-francisco-large-cyclists-special/7294118548.html", "datetime": "2021-03-19 22:09", "price": "$1,995", "where": "lower haight", "image_url": "https://images.craigslist.org/00A0A_li2A6I6pHTez_0CI0sV_600x450.jpg", "lat": 37.77158, "lng": -122.434323}, {"id": "7294599830", "name": "Great Mission Studio -   - Inner Mission near everything", "url": "https://sfbay.craigslist.org/sfc/apa/d/san-francisco-great-mission-studio/7294599830.html", "datetime": "2021-03-20 20:02", "price": "$1,995", "where": "mission district", "image_url": "https://images.craigslist.org/00r0r_abcsui8JVZs_09u0aU_600x450.jpg", "lat": 37.768917, "lng": -122.420225}, {"id": "7295035223", "name": "1 Bdrm. Apt.5", "url": "https://sfbay.craigslist.org/sfc/apa/d/san-francisco-bdrm-apt5/7295035223.html", "datetime": "2021-03-21 19:09", "price": "$1,890", "where": "noe valley", "image_url": "https://images.craigslist.org/00c0c_hC83b5QNgLwz_0CI0t2_600x450.jpg", "lat": 37.745579, "lng": -122.422218}, {"id": "7295035332", "name": "Large Studio Apt. #19", "url": "https://sfbay.craigslist.org/sfc/apa/d/san-francisco-large-studio-apt-19/7295035332.html", "datetime": "2021-03-21 19:09", "price": "$1,800", "where": "alamo square / nopa", "image_url": "https://images.craigslist.org/00T0T_7Xf6TuAv5cr_07K0ak_600x450.jpg", "lat": 37.774497, "lng": -122.435095}, {"id": "7295035463", "name": "Large Studio Apt. #19", "url": "https://sfbay.craigslist.org/sfc/apa/d/san-francisco-large-studio-apt-19/7295035463.html", "datetime": "2021-03-21 19:10", "price": "$1,800", "where": "alamo square / nopa", "image_url": "https://images.craigslist.org/00T0T_7Xf6TuAv5cr_07K0ak_600x450.jpg", "lat": 37.774497, "lng": -122.435095}, {"id": "7295417907", "name": "Updated Top Floor 1 Bedroom", "url": "https://sfbay.craigslist.org/sfc/apa/d/updated-top-floor-bedroom/7295417907.html", "datetime": "2021-03-22 13:46", "price": "$1,850", "where": "SOMA / south beach", "image_url": "https://images.craigslist.org/01010_1NI5lXx9Yom_0pO0jm_600x450.jpg", "lat": 37.771502, "lng": -122.421089}, {"id": "7279891957", "name": "Cozy One Bedroom in \"Baja\" Noe", "url": "https://sfbay.craigslist.org/sfc/apa/d/san-francisco-cozy-one-bedroom-in-baja/7279891957.html", "datetime": "2021-03-15 13:26", "price": "$1,950", "where": "mission district", "image_url": "https://images.craigslist.org/01414_7UIFEod8Tmmz_0t20t2_600x450.jpg", "lat": 37.7509, "lng": -122.4153}, {"id": "7293475560", "name": "Room for rent in a 2 bedroom 1 bathroom apartment near Dolores!", "url": "https://sfbay.craigslist.org/sfc/apa/d/room-for-rent-in-2-bedroom-bathroom/7293475560.html", "datetime": "2021-03-18 15:36", "price": "$1,700", "where": "mission district", "image_url": "https://images.craigslist.org/00U0U_ghmL6rUbUAiz_0gw0b0_600x450.jpg", "lat": 37.7509, "lng": -122.4153}, {"id": "7294059127", "name": "New low price for Inner Mission, charming and sunny  unit on 3rd floor", "url": "https://sfbay.craigslist.org/sfc/apa/d/san-francisco-new-low-price-for-inner/7294059127.html", "datetime": "2021-03-19 18:04", "price": "$1,700", "where": "mission district", "image_url": "https://images.craigslist.org/00w0w_1jOczqDSKNF_0t20t2_600x450.jpg", "lat": 37.768915, "lng": -122.415613}, {"id": "7286855476", "name": "BEAUTIFUL GARDEN APARTMENT", "url": "https://sfbay.craigslist.org/sfc/apa/d/san-francisco-beautiful-garden-apartment/7286855476.html", "datetime": "2021-03-22 11:01", "price": "$1,895", "where": "mission district", "image_url": "https://images.craigslist.org/00O0O_3PeX8eSrIRAz_0CI0t2_600x450.jpg", "lat": 37.754312, "lng": -122.410708}, {"id": "7293956377", "name": "Bernal Heights In-law apartment", "url": "https://sfbay.craigslist.org/sfc/apa/d/san-francisco-bernal-heights-in-law/7293956377.html", "datetime": "2021-03-19 14:21", "price": "$1,800", "where": "bernal heights", "image_url": "https://images.craigslist.org/00L0L_kndGC6taRdjz_0oo0ww_600x450.jpg", "lat": 37.743825, "lng": -122.418912}, {"id": "7285244838", "name": "1 BED 1 BATH with Parking in the Mission", "url": "https://sfbay.craigslist.org/sfc/apa/d/san-francisco-bed-bath-with-parking-in/7285244838.html", "datetime": "2021-03-18 16:31", "price": "$2,000", "where": "mission district", "image_url": "https://images.craigslist.org/00X0X_6YBJ5iNEA8tz_0CI0rx_600x450.jpg", "lat": 37.7725, "lng": -122.4147}, {"id": "7288134595", "name": "Dolores Park Studio with patio...$500 move in credit", "url": "https://sfbay.craigslist.org/sfc/apa/d/san-francisco-dolores-park-studio-with/7288134595.html", "datetime": "2021-03-19 10:26", "price": "$1,850", "where": "mission district", "image_url": "https://images.craigslist.org/00Q0Q_6fPBbnJCfGcz_07K0ak_600x450.jpg", "lat": 37.7725, "lng": -122.4147}, {"id": "7288441545", "name": "Large Studio Central to USF and UCSF", "url": "https://sfbay.craigslist.org/sfc/apa/d/san-francisco-large-studio-central-to/7288441545.html", "datetime": "2021-03-21 12:40", "price": "$1,800", "where": "USF / panhandle", "image_url": "https://images.craigslist.org/01717_86pin2JnFMVz_0co0gw_600x450.jpg", "lat": 37.774309, "lng": -122.458371}, {"id": "7294233039", "name": "Howard / 7th one bedroom.", "url": "https://sfbay.craigslist.org/sfc/apa/d/san-francisco-howard-7th-one-bedroom/7294233039.html", "datetime": "2021-03-20 08:01", "price": "$1,800", "where": "SOMA / south beach", "image_url": "https://images.craigslist.org/01313_1SAzNwqVpZyz_0CI0t2_600x450.jpg", "lat": 37.778343, "lng": -122.408925}, {"id": "7294233223", "name": "Howard / 7th one bedroom.", "url": "https://sfbay.craigslist.org/sfc/apa/d/san-francisco-howard-7th-one-bedroom/7294233223.html", "datetime": "2021-03-20 08:01", "price": "$1,800", "where": "SOMA / south beach", "image_url": "https://images.craigslist.org/01313_1SAzNwqVpZyz_0CI0t2_600x450.jpg", "lat": 37.778343, "lng": -122.408925}, {"id": "7294233436", "name": "Howard / 7th one bedroom.", "url": "https://sfbay.craigslist.org/sfc/apa/d/san-francisco-howard-7th-one-bedroom/7294233436.html", "datetime": "2021-03-20 08:01", "price": "$1,800", "where": "SOMA / south beach", "image_url": "https://images.craigslist.org/01313_1SAzNwqVpZyz_0CI0t2_600x450.jpg", "lat": 37.778343, "lng": -122.408925}, {"id": "7294233648", "name": "Howard / 7th one bedroom.", "url": "https://sfbay.craigslist.org/sfc/apa/d/san-francisco-howard-7th-one-bedroom/7294233648.html", "datetime": "2021-03-20 08:02", "price": "$1,800", "where": "SOMA / south beach", "image_url": "https://images.craigslist.org/01313_1SAzNwqVpZyz_0CI0t2_600x450.jpg", "lat": 37.778343, "lng": -122.408925}, {"id": "7292986982", "name": "3 Months Free! Remodeled 1 Bedroom available now!", "url": "https://sfbay.craigslist.org/sfc/apa/d/san-francisco-months-free-remodeled/7292986982.html", "datetime": "2021-03-17 16:20", "price": "$1,583", "where": "SOMA / south beach", "image_url": "https://images.craigslist.org/00v0v_XqWWnbiLpXz_0CI0pO_600x450.jpg", "lat": 37.780181, "lng": -122.409709}, {"id": "7295314831", "name": "12 Week Free Special! 1 Bedroom Available Now! Special Ends 3/24", "url": "https://sfbay.craigslist.org/sfc/apa/d/san-francisco-12-week-free-special/7295314831.html", "datetime": "2021-03-22 11:03", "price": "$1,688", "where": "SOMA / south beach", "image_url": "https://images.craigslist.org/00F0F_hPPgLBbm7zDz_0CI0pO_600x450.jpg", "lat": 37.780181, "lng": -122.409709}, {"id": "7295257382", "name": "Spacious one bedroom with self guided tour available", "url": "https://sfbay.craigslist.org/sfc/apa/d/san-francisco-spacious-one-bedroom-with/7295257382.html", "datetime": "2021-03-22 09:39", "price": "$1,899", "where": "downtown / civic / van ness", "image_url": "https://images.craigslist.org/00q0q_hsmY66i0ZAI_0CI0lM_600x450.jpg", "lat": 37.785199, "lng": -122.419152}, {"id": "7291754187", "name": "Remodeled Top Floor Flat", "url": "https://sfbay.craigslist.org/sfc/apa/d/san-francisco-remodeled-top-floor-flat/7291754187.html", "datetime": "2021-03-15 10:18", "price": "$1,700", "where": "SOMA / south beach", "image_url": "https://images.craigslist.org/00I0I_6lFb73fCz02z_0ku0eq_600x450.jpg", "lat": 37.7798, "lng": -122.408157}, {"id": "7289694525", "name": "QUIET GARDEN VIEW! LARGE JUNIOR ONE BEDROOM PET FRIENDLY!", "url": "https://sfbay.craigslist.org/sfc/apa/d/san-francisco-quiet-garden-view-large/7289694525.html", "datetime": "2021-03-18 08:41", "price": "$1,595", "where": "downtown / civic / van ness", "image_url": "https://images.craigslist.org/00n0n_cmYctJRBn8cz_0t20CI_600x450.jpg", "lat": 37.785376, "lng": -122.41626}, {"id": "7293932822", "name": "Move-In Special for your 1 Bedroom Home!", "url": "https://sfbay.craigslist.org/sfc/apa/d/san-francisco-move-in-special-for-your/7293932822.html", "datetime": "2021-03-19 13:48", "price": "$1,595", "where": "lower nob hill", "image_url": "https://images.craigslist.org/00X0X_d7cWHPmIkhx_0CI0pO_600x450.jpg", "lat": 37.7871, "lng": -122.417786}, {"id": "7279769818", "name": "1BR/1BA Top floor Remodeled Apartment w/city views- ONE MONTH FREE!", "url": "https://sfbay.craigslist.org/sfc/apa/d/san-francisco-1br-1ba-top-floor/7279769818.html", "datetime": "2021-03-15 15:37", "price": "$1,995", "where": "lower nob hill", "image_url": "https://images.craigslist.org/01414_gwbim77JKljz_07K0ak_600x450.jpg", "lat": 37.789004, "lng": -122.417882}, {"id": "7292211731", "name": "Top Floor 1 Bedroom Available Corner Jones Sutter Remodeled", "url": "https://sfbay.craigslist.org/sfc/apa/d/san-francisco-top-floor-bedroom/7292211731.html", "datetime": "2021-03-21 06:14", "price": "$1,995", "where": "lower nob hill", "image_url": "https://images.craigslist.org/01212_4qVCo80X6u9z_0go0aR_600x450.jpg", "lat": 37.788794, "lng": -122.41338}, {"id": "7292316417", "name": "Great Pac Heights Remodeled Large Apt! HW Floors! Free Rent! ~ J.Wavro", "url": "https://sfbay.craigslist.org/sfc/apa/d/san-francisco-great-pac-heights/7292316417.html", "datetime": "2021-03-16 11:53", "price": "$1,995", "where": "pacific heights", "image_url": "https://images.craigslist.org/00S0S_71j2VUh2Fjbz_0g80c6_600x450.jpg", "lat": 37.792841, "lng": -122.424518}, {"id": "7293808887", "name": "Great Pac Heights Remodeled Large Apt! HW Floors! Free Rent! ~ J.Wavro", "url": "https://sfbay.craigslist.org/sfc/apa/d/san-francisco-great-pac-heights/7293808887.html", "datetime": "2021-03-19 11:45", "price": "$1,995", "where": "pacific heights", "image_url": "https://images.craigslist.org/00S0S_71j2VUh2Fjbz_0g80c6_600x450.jpg", "lat": 37.792841, "lng": -122.424518}, {"id": "7283181871", "name": "1140 Pine, #5, San Francisco, CA", "url": "https://sfbay.craigslist.org/sfc/apa/d/san-francisco-1140-pine-san-francisco-ca/7283181871.html", "datetime": "2021-03-18 09:01", "price": "$1,850", "where": "nob hill", "image_url": "https://images.craigslist.org/00u0u_bVWD6HUs5ct_05r07g_600x450.jpg", "lat": 37.790376, "lng": -122.414602}, {"id": "7286694371", "name": "1140 Pine, #9, San Francisco, CA", "url": "https://sfbay.craigslist.org/sfc/apa/d/san-francisco-1140-pine-san-francisco-ca/7286694371.html", "datetime": "2021-03-18 09:01", "price": "$1,750", "where": "nob hill", "image_url": "https://images.craigslist.org/00u0u_bVWD6HUs5ct_05r07g_600x450.jpg", "lat": 37.790376, "lng": -122.414602}, {"id": "7293500078", "name": "Big Studio/Downtown/601O'Farrell&Leavenworth/Remodeled/Available Now!!", "url": "https://sfbay.craigslist.org/sfc/apa/d/san-francisco-big-studio-downtown/7293500078.html", "datetime": "2021-03-18 16:30", "price": "$1,895", "where": "downtown / civic / van ness", "image_url": "https://images.craigslist.org/01717_6ULgtrQHN3nz_09G06s_600x450.jpg", "lat": 37.7917, "lng": -122.4186}, {"id": "7293942549", "name": "Large Jr One Bedroom with Amazing City View!", "url": "https://sfbay.craigslist.org/sfc/apa/d/san-francisco-large-jr-one-bedroom-with/7293942549.html", "datetime": "2021-03-22 12:06", "price": "$1,989", "where": "lower nob hill", "image_url": "https://images.craigslist.org/00T0T_6EzqSO3t9XXz_0CI0t2_600x450.jpg", "lat": 37.7917, "lng": -122.4186}, {"id": "7295274810", "name": "Nice 1 Bdrm apt 3rd floor  Water/Garbage included", "url": "https://sfbay.craigslist.org/sfc/apa/d/san-francisco-nice-bdrm-apt-3rd-floor/7295274810.html", "datetime": "2021-03-22 10:04", "price": "$1,995", "where": "lower nob hill", "image_url": "https://images.craigslist.org/00j0j_2roVidwa4rdz_0gw0co_600x450.jpg", "lat": 37.7917, "lng": -122.4186}, {"id": "7292877627", "name": "Cozy, Quiet 1BR, 1BA Basement unit on Larkin Street & Clay Street", "url": "https://sfbay.craigslist.org/sfc/apa/d/san-francisco-cozy-quiet-1br-1ba/7292877627.html", "datetime": "2021-03-17 12:47", "price": "$1,500", "where": "nob hill", "image_url": "https://images.craigslist.org/01010_3o0OJQcLCRPz_0lM0t2_600x450.jpg", "lat": 37.792205, "lng": -122.419324}, {"id": "7292874495", "name": "1BR, 1BA 2nd Floor Unit on Larkin Street & Clay Street", "url": "https://sfbay.craigslist.org/sfc/apa/d/san-francisco-1br-1ba-2nd-floor-unit-on/7292874495.html", "datetime": "2021-03-17 12:52", "price": "$1,850", "where": "nob hill", "image_url": "https://images.craigslist.org/00s0s_90OlL1qBu77z_0oo0ww_600x450.jpg", "lat": 37.792216, "lng": -122.419326}, {"id": "7291815384", "name": "Large 1 bed, 1 bathroom Apartment on Nob Hill!! Must See!", "url": "https://sfbay.craigslist.org/sfc/apa/d/san-francisco-large-bed-bathroom/7291815384.html", "datetime": "2021-03-15 11:53", "price": "$1,995", "where": "nob hill", "image_url": "https://images.craigslist.org/00000_5NrIDPxjhMoz_0t20CI_600x450.jpg", "lat": 37.791206, "lng": -122.41575}, {"id": "7294564590", "name": "3 to 6 mo only, lar 1 bd, quiet, big liv rm nr transit, trader joe", "url": "https://sfbay.craigslist.org/sfc/apa/d/san-francisco-to-mo-only-lar-bd-quiet/7294564590.html", "datetime": "2021-03-20 17:54", "price": "$2,000", "where": "nob hill", "image_url": "https://images.craigslist.org/00t0t_czsQj9Ik7uV_600x450.jpg", "lat": 37.792507, "lng": -122.418358}, {"id": "7289074324", "name": "One bedroom apartment in a cozy 12-unit building", "url": "https://sfbay.craigslist.org/sfc/apa/d/san-francisco-one-bedroom-apartment-in/7289074324.html", "datetime": "2021-03-22 14:31", "price": "$2,000", "where": "lower nob hill", "image_url": "https://images.craigslist.org/00A0A_4kXoLxaNBn4z_0t20CI_600x450.jpg", "lat": 37.792701, "lng": -122.418564}, {"id": "7287394358", "name": "Prime Nob Hill location 1 bedroom", "url": "https://sfbay.craigslist.org/sfc/apa/d/san-francisco-prime-nob-hill-location/7287394358.html", "datetime": "2021-03-21 20:31", "price": "$1,995", "where": "nob hill", "image_url": "https://images.craigslist.org/00101_4DPM5FPGM7tz_0x20oM_600x450.jpg", "lat": 37.793301, "lng": -122.412726}, {"id": "7279267099", "name": "Beautiful Marina District Apartment", "url": "https://sfbay.craigslist.org/sfc/apa/d/san-francisco-beautiful-marina-district/7279267099.html", "datetime": "2021-03-18 13:37", "price": "$1,995", "where": "marina / cow hollow", "image_url": "https://images.craigslist.org/00303_qJw4TGPvkPz_0lM0t2_600x450.jpg", "lat": 37.798463, "lng": -122.424687}, {"id": "7277469738", "name": "ONE MONTH FREE! GREAT 1 BR w/ PVT DECK off UNION ST", "url": "https://sfbay.craigslist.org/sfc/apa/d/san-francisco-one-month-free-great-br/7277469738.html", "datetime": "2021-03-15 11:26", "price": "$1,700", "where": "marina / cow hollow", "image_url": "https://images.craigslist.org/00A0A_3iVYGaVkal9z_07K0ak_600x450.jpg", "lat": 37.7999, "lng": -122.4342}, {"id": "7279345512", "name": "Price Reduced! Garden Unit 1 BR in Prime Location with Backyard!", "url": "https://sfbay.craigslist.org/sfc/apa/d/san-francisco-price-reduced-garden-unit/7279345512.html", "datetime": "2021-03-16 20:49", "price": "$2,000", "where": "marina / cow hollow", "image_url": "https://images.craigslist.org/00n0n_bBRrotKvprOz_0CI0t2_600x450.jpg", "lat": 37.804185, "lng": -122.439448}]